name,frq,lat,lon
Blacksburg VA,10,37.2296566,-80.4136767
Austin TX,1,30.2711286,-97.7436995
Atlanta GA,2,33.7490987,-84.3901849
San Diego CA,2,32.7174209,-117.1627714
Arlington TX,1,32.7355816,-97.1071186